City	Population	Latitude	Longitude
Sydney	4627345	-33.868	151.207
Melbourne	4246375	-37.814	144.963
Brisbane	2189878	-27.468	153.028
Perth	1896548	-31.952	115.861
Adelaide	1225235	-34.929	138.599
Gold Coast	591473	-28	153.431
Canberra	367752	-35.283	149.128
Newcastle	308308	-32.93	151.78
Wollongong	292190	-34.424	150.893
Logan City	282673	-27.639	153.109
Geelong	226034	-38.147	144.361
Hobart	216656	-42.879	147.329